{
  "donors": [
    {
      "id": "d1",
      "name": "Rahul Shetty",
      "bloodType": "O-",
      "phone": "9900000001",
      "lat": 12.9716,
      "lng": 77.5946,
      "lastDonationDate": "2026-01-15",
      "available": true,
      "donationCount": 6
    },
    {
      "id": "d2",
      "name": "Anjali Rao",
      "bloodType": "A+",
      "phone": "9900000002",
      "lat": 12.9352,
      "lng": 77.6146,
      "lastDonationDate": "2025-11-01",
      "available": true,
      "donationCount": 3
    },
    {
      "id": "d3",
      "name": "Suresh Kumar",
      "bloodType": "B+",
      "phone": "9900000003",
      "lat": 12.9611,
      "lng": 77.6387,
      "lastDonationDate": "2026-04-20",
      "available": true,
      "donationCount": 1
    },
    {
      "id": "d4",
      "name": "Divya Pai",
      "bloodType": "AB+",
      "phone": "9900000004",
      "lat": 12.9784,
      "lng": 77.6408,
      "lastDonationDate": null,
      "available": true,
      "donationCount": 0
    },
    {
      "id": "d5",
      "name": "Manoj Bhat",
      "bloodType": "O+",
      "phone": "9900000005",
      "lat": 12.9141,
      "lng": 77.6081,
      "lastDonationDate": "2026-06-01",
      "available": true,
      "donationCount": 4
    },
    {
      "id": "d6",
      "name": "Kavya Nair",
      "bloodType": "O-",
      "phone": "9900000006",
      "lat": 12.9279,
      "lng": 77.6271,
      "lastDonationDate": "2025-09-10",
      "available": true,
      "donationCount": 9
    },
    {
      "id": "d7",
      "name": "Farhan Ali",
      "bloodType": "B-",
      "phone": "9900000007",
      "lat": 13.0035,
      "lng": 77.5855,
      "lastDonationDate": "2026-03-05",
      "available": false,
      "donationCount": 2
    },
    {
      "id": "d8",
      "name": "Priya Menon",
      "bloodType": "A-",
      "phone": "9900000008",
      "lat": 12.9698,
      "lng": 77.75,
      "lastDonationDate": "2026-05-25",
      "available": true,
      "donationCount": 5
    },
    {
      "id": "8ac6443c-1d46-4c24-b3de-a1fa0ac49e5b",
      "name": "Shivaprasad M S",
      "bloodType": "O+",
      "phone": "7022400373",
      "lat": 13.023463,
      "lng": 74.968037,
      "lastDonationDate": null,
      "available": true,
      "donationCount": 0
    }
  ],
  "requests": [
    {
      "id": "a32f0091-a928-41a2-80da-abe9ff172c20",
      "bloodType": "O+",
      "lat": 12.9716,
      "lng": 77.5946,
      "urgency": "critical",
      "matchesFound": 2,
      "timestamp": "2026-07-11T06:13:40.908Z"
    },
    {
      "id": "45d1e49f-d527-42c5-a5b2-e3f939adcb9d",
      "bloodType": "O+",
      "lat": 12.9716,
      "lng": 77.5946,
      "urgency": "critical",
      "matchesFound": 2,
      "timestamp": "2026-07-11T06:18:46.004Z"
    },
    {
      "id": "cfabfb8b-718b-4a94-87f3-4e66c80c4488",
      "bloodType": "O+",
      "lat": 12.9716,
      "lng": 77.5946,
      "urgency": "high",
      "matchesFound": 2,
      "timestamp": "2026-07-11T09:43:29.745Z"
    },
    {
      "id": "d6872032-6d9e-487f-a8bc-01ff0e9b27a6",
      "bloodType": "O+",
      "lat": 13.0217,
      "lng": 74.9766,
      "urgency": "critical",
      "radiusKm": 7,
      "matchesFound": 2,
      "expandedSearch": true,
      "timestamp": "2026-07-11T10:21:33.293Z"
    },
    {
      "id": "abe0eab5-5ac5-4418-9e24-889467c82875",
      "bloodType": "O+",
      "lat": 13.0217,
      "lng": 74.9766,
      "urgency": "critical",
      "radiusKm": 7,
      "matchesFound": 2,
      "expandedSearch": true,
      "timestamp": "2026-07-11T10:22:17.292Z"
    },
    {
      "id": "c6bf97e2-f1cf-4f80-989e-9d52672a59a2",
      "bloodType": "O+",
      "lat": 13.0217,
      "lng": 74.9766,
      "urgency": "critical",
      "radiusKm": 7,
      "matchesFound": 2,
      "expandedSearch": true,
      "timestamp": "2026-07-11T10:22:32.930Z"
    },
    {
      "id": "f80beb10-8ac4-4a5c-a94a-dfb5e533406e",
      "bloodType": "O+",
      "lat": 13.023532,
      "lng": 74.968053,
      "urgency": "high",
      "radiusKm": 15,
      "matchesFound": 1,
      "expandedSearch": false,
      "timestamp": "2026-07-13T04:26:04.160Z"
    }
  ]
}